"id","name","state_id","latitude","longitude","created_at","updated_at"
"1","Aba North","1","5.130000","7.370000","2019-02-15 17:00:00","2018-09-17 10:34:52"
"2","Aba South","1","5.070000","7.340000","2019-02-15 17:00:00","2018-08-10 19:11:04"
"3","Arochukwu","1","5.390000","7.900000","2019-02-15 17:00:00","2018-08-10 19:11:05"
"4","Bende","1","5.560000","7.630000","2019-02-15 17:00:00","2018-08-10 19:11:06"
"5","Ikwuano","1","5.410000","7.590000","2019-02-15 17:00:00","2018-08-10 19:11:06"
"6","Isiala Ngwa North","1","5.290000","7.420000","2019-02-15 17:00:00","2018-08-10 19:11:07"
"7","Isiala Ngwa South","1","5.410000","7.420000","2019-02-15 17:00:00","2018-08-10 19:11:08"
"8","Isuikwuato","1","5.810000","7.480000","2019-02-15 17:00:00","2018-08-10 19:11:08"
"9","Obi Ngwa","1","5.200000","7.330000","2019-02-15 17:00:00","2018-08-10 19:11:09"
"10","Ohafia","1","5.620000","7.860000","2019-02-15 17:00:00","2018-08-10 19:11:09"
"11","Osisioma","1","5.200000","7.330000","2019-02-15 17:00:00","2018-08-10 19:11:10"
"12","Ugwunagbo","1","5.000000","7.330000","2019-02-15 17:00:00","2018-08-10 19:11:10"
"13","Ukwa East","1","4.910000","7.420000","2019-02-15 17:00:00","2018-08-10 19:11:11"
"14","Ukwa West","1","4.920000","7.240000","2019-02-15 17:00:00","2018-08-10 19:11:11"
"15","Umuahia North","1","5.580000","7.500000","2019-02-15 17:00:00","2018-08-10 19:11:12"
"16","Umuahia South","1","5.490000","7.420000","2019-02-15 17:00:00","2018-08-10 19:11:12"
"17","Umu Nneochi","1","5.950000","7.420000","2019-02-15 17:00:00","2018-08-10 19:11:13"
"18","Demsa","2","9.460000","12.150000","2019-02-15 17:00:00","2018-08-10 19:11:13"
"19","Fufure","2","9.230000","12.710000","2019-02-15 17:00:00","2018-08-10 19:11:14"
"20","Ganye","2","8.440000","12.050000","2019-02-15 17:00:00","2018-08-10 19:11:15"
"21","Gayuk","2","9.820000","11.930000","2019-02-15 17:00:00","2018-08-10 19:11:15"
"22","Gombi","2","10.160000","12.740000","2019-02-15 17:00:00","2018-08-10 19:11:16"
"23","Grie","2","9.370000","12.550000","2019-02-15 17:00:00","2018-08-10 19:11:16"
"24","Hong","2","10.230000","12.930000","2019-02-15 17:00:00","2018-08-10 19:11:17"
"25","Jada","2","8.770000","12.160000","2019-02-15 17:00:00","2018-08-10 19:11:17"
"26","Lamurde","2","9.610000","11.800000","2019-02-15 17:00:00","2018-08-10 19:11:18"
"27","Madagali","2","10.890000","13.630000","2019-02-15 17:00:00","2018-08-10 19:11:18"
"28","Maiha","2","9.870000","13.130000","2019-02-15 17:00:00","2018-08-10 19:11:19"
"29","Mayo Belwa","2","9.050000","12.060000","2019-02-15 17:00:00","2018-08-10 19:11:19"
"30","Michika","2","10.560000","13.400000","2019-02-15 17:00:00","2018-08-10 19:11:20"
"31","Mubi North","2","10.380000","13.310000","2019-02-15 17:00:00","2018-08-10 19:11:20"
"32","Mubi South","2","10.190000","13.340000","2019-02-15 17:00:00","2018-08-10 19:11:21"
"33","Numan","2","9.450000","12.030000","2019-02-15 17:00:00","2018-08-10 19:11:21"
"34","Shelleng","2","9.900000","12.010000","2019-02-15 17:00:00","2018-08-10 19:11:22"
"35","Song","2","9.830000","12.620000","2019-02-15 17:00:00","2018-08-10 19:11:22"
"36","Toungo","2","8.120000","12.040000","2019-02-15 17:00:00","2018-08-10 19:11:23"
"37","Yola North","2","9.170000","12.420000","2019-02-15 17:00:00","2018-08-10 19:11:24"
"38","Yola South","2","9.260000","12.420000","2019-02-15 17:00:00","2018-08-10 19:11:24"
"39","Abak","3","5.000000","7.770000","2019-02-15 17:00:00","2018-08-10 19:11:25"
"40","Eastern Obolo","3","4.510000","7.670000","2019-02-15 17:00:00","2018-08-10 19:11:26"
"41","Eket","3","4.650000","7.940000","2019-02-15 17:00:00","2018-08-10 19:11:27"
"42","Esit Eket","3","4.660000","8.070000","2019-02-15 17:00:00","2018-08-10 19:11:28"
"43","Essien Udim","3","5.120000","7.630000","2019-02-15 17:00:00","2018-08-10 19:11:29"
"44","Etim Ekpo","3","4.990000","7.630000","2019-02-15 17:00:00","2018-08-10 19:11:30"
"45","Etinan","3","4.840000","7.860000","2019-02-15 17:00:00","2018-08-10 19:11:31"
"46","Ibeno","3","4.580000","8.160000","2019-02-15 17:00:00","2018-08-10 19:11:32"
"47","Ibesikpo Asutan","3","4.920000","7.950000","2019-02-15 17:00:00","2018-08-10 19:11:33"
"48","Ibiono-Ibom","3","5.200000","7.890000","2019-02-15 17:00:00","2018-08-10 19:11:33"
"49","Ika","3","5.010000","7.540000","2019-02-15 17:00:00","2018-08-10 19:11:34"
"50","Ikono","3","5.200000","7.810000","2019-02-15 17:00:00","2018-08-10 19:11:35"
"51","Ikot Abasi","3","4.620000","7.630000","2019-02-15 17:00:00","2018-08-10 19:11:36"
"52","Ikot Ekpene","3","5.170000","7.710000","2019-02-15 17:00:00","2018-08-10 19:11:37"
"53","Ini","3","5.390000","7.740000","2019-02-15 17:00:00","2018-08-10 19:11:38"
"54","Itu","3","5.160000","8.020000","2019-02-15 17:00:00","2018-08-10 19:11:39"
"55","Mbo","3","4.650000","8.250000","2019-02-15 17:00:00","2018-08-10 19:11:40"
"56","Mkpat-Enin","3","4.700000","7.770000","2019-02-15 17:00:00","2018-08-10 19:11:40"
"57","Nsit-Atai","3","4.830000","8.020000","2019-02-15 17:00:00","2018-08-10 19:11:41"
"58","Nsit-Ibom","3","4.900000","7.900000","2019-02-15 17:00:00","2018-08-10 19:11:42"
"59","Nsit-Ubium","3","4.740000","7.940000","2019-02-15 17:00:00","2018-08-10 19:11:43"
"60","Obot Akara","3","5.240000","7.590000","2019-02-15 17:00:00","2018-08-10 19:11:44"
"61","Okobo","3","4.820000","8.110000","2019-02-15 17:00:00","2018-08-10 19:11:45"
"62","Onna","3","4.580000","7.850000","2019-02-15 17:00:00","2018-08-10 19:11:46"
"63","Oron","3","4.810000","8.240000","2019-02-15 17:00:00","2018-08-10 19:11:46"
"64","Oruk Anam","3","4.790000","7.680000","2019-02-15 17:00:00","2018-08-10 19:11:47"
"65","Udung-Uko","3","4.750000","8.250000","2019-02-15 17:00:00","2018-08-10 19:11:48"
"66","Ukanafun","3","4.910000","7.590000","2019-02-15 17:00:00","2018-08-10 19:11:49"
"67","Uruan","3","5.030000","8.070000","2019-02-15 17:00:00","2018-08-10 19:11:50"
"68","Urue-Offong/Oruko","3","4.700000","8.160000","2019-02-15 17:00:00","2018-08-10 19:11:51"
"69","Uyo","3","5.040000","7.910000","2019-02-15 17:00:00","2018-08-10 19:11:52"
"70","Aguata","4","6.010000","7.100000","2019-02-15 17:00:00","2018-08-10 19:11:53"
"71","Anambra East","4","6.310000","6.870000","2019-02-15 17:00:00","2018-08-10 19:11:53"
"72","Anambra West","4","6.490000","6.790000","2019-02-15 17:00:00","2018-08-10 19:11:54"
"73","Anaocha","4","6.100000","7.020000","2019-02-15 17:00:00","2018-08-10 19:11:55"
"74","Awka North","4","6.260000","7.130000","2019-02-15 17:00:00","2018-08-10 19:11:56"
"75","Awka South","4","6.210000","7.070000","2019-02-15 17:00:00","2018-08-10 19:11:57"
"76","Ayamelum","4","6.490000","6.960000","2019-02-15 17:00:00","2018-08-10 19:11:58"
"77","Dunukofia","4","6.200000","6.980000","2019-02-15 17:00:00","2018-08-10 19:11:59"
"78","Ekwusigo","4","6.030000","6.850000","2019-02-15 17:00:00","2018-08-10 19:12:00"
"79","Idemili North","4","6.120000","6.950000","2019-02-15 17:00:00","2018-08-10 19:12:00"
"80","Idemili South","4","6.080000","6.870000","2019-02-15 17:00:00","2018-08-10 19:12:01"
"81","Ihiala","4","5.850000","6.850000","2019-02-15 17:00:00","2018-08-10 19:12:02"
"82","Njikoka","4","6.180000","6.990000","2019-02-15 17:00:00","2018-08-10 19:12:03"
"83","Nnewi North","4","6.010000","6.910000","2019-02-15 17:00:00","2018-08-10 19:12:04"
"84","Nnewi South","4","5.960000","6.990000","2019-02-15 17:00:00","2018-08-10 19:12:05"
"85","Ogbaru","4","5.920000","6.730000","2019-02-15 17:00:00","2018-08-10 19:12:06"
"86","Onitsha North","4","6.160000","6.800000","2019-02-15 17:00:00","2018-08-10 19:12:06"
"87","Onitsha South","4","6.140000","6.780000","2019-02-15 17:00:00","2018-08-10 19:12:07"
"88","Orumba North","4","6.050000","7.220000","2019-02-15 17:00:00","2018-08-10 19:12:08"
"89","Orumba South","4","6.050000","7.220000","2019-02-15 17:00:00","2018-08-10 19:12:09"
"90","Oyi","4","6.280000","7.010000","2019-02-15 17:00:00","2018-08-10 19:12:10"
"91","Alkaleri","5","9.830000","10.530000","2019-02-15 17:00:00","2018-08-10 19:12:11"
"92","Bauchi","5","10.300000","9.820000","2019-02-15 17:00:00","2018-08-10 19:12:11"
"93","Bogoro","5","9.670000","9.600000","2019-02-15 17:00:00","2018-08-10 19:12:12"
"94","Damban","5","11.640000","10.750000","2019-02-15 17:00:00","2018-08-10 19:12:13"
"95","Darazo","5","11.000000","10.410000","2019-02-15 17:00:00","2018-08-10 19:12:14"
"96","Dass","5","9.990000","9.500000","2019-02-15 17:00:00","2018-08-10 19:12:15"
"97","Gamawa","5","12.140000","10.540000","2019-02-15 17:00:00","2018-08-10 19:12:16"
"98","Ganjuwa","5","10.730000","9.990000","2019-02-15 17:00:00","2018-08-10 19:12:16"
"99","Giade","5","11.390000","10.200000","2019-02-15 17:00:00","2018-08-10 19:12:17"
"100","Itas/Gadau","5","11.930000","10.130000","2019-02-15 17:00:00","2018-08-10 19:12:18"
"101","Jama'are","5","11.670000","9.930000","2019-02-15 17:00:00","2018-08-10 19:12:19"
"102","Katagum","5","12.290000","10.350000","2019-02-15 17:00:00","2018-08-10 19:12:20"
"103","Kirfi","5","10.360000","10.530000","2019-02-15 17:00:00","2018-08-10 19:12:21"
"104","Misau","5","11.310000","10.470000","2019-02-15 17:00:00","2018-08-10 19:12:21"
"105","Ningi","5","11.070000","9.570000","2019-02-15 17:00:00","2018-08-10 19:12:22"
"106","Shira","5","11.450000","10.050000","2019-02-15 17:00:00","2018-08-10 19:12:23"
"107","Tafawa Balewa","5","9.760000","9.560000","2019-02-15 17:00:00","2018-08-10 19:12:24"
"108","Toro","5","10.060000","9.070000","2019-02-15 17:00:00","2018-08-10 19:12:25"
"109","Warji","5","11.180000","9.750000","2019-02-15 17:00:00","2018-08-10 19:12:26"
"110","Zaki","5","12.110000","10.300000","2019-02-15 17:00:00","2018-08-10 19:12:27"
"111","Brass","6","4.310000","6.250000","2019-02-15 17:00:00","2018-08-10 19:12:28"
"112","Ekeremor","6","4.950000","5.810000","2019-02-15 17:00:00","2018-08-10 19:12:28"
"113","Kolokuma/Opokuma","6","5.090000","6.260000","2019-02-15 17:00:00","2018-08-10 19:12:29"
"114","Nembe","6","4.490000","6.280000","2019-02-15 17:00:00","2018-08-10 19:12:30"
"115","Ogbia","6","4.740000","6.370000","2019-02-15 17:00:00","2018-08-10 19:12:31"
"116","Sagbama","6","5.150000","6.190000","2019-02-15 17:00:00","2018-08-10 19:12:32"
"117","Southern Ijaw","6","4.620000","5.980000","2019-02-15 17:00:00","2018-08-10 19:12:33"
"118","Yenagoa","6","4.920000","6.270000","2019-02-15 17:00:00","2018-08-10 19:12:34"
"119","Agatu","7","7.840000","7.920000","2019-02-15 17:00:00","2018-08-10 19:12:35"
"120","Apa","7","7.350000","8.840000","2019-02-15 17:00:00","2018-08-10 19:12:35"
"121","Ado","7","7.800000","7.650000","2019-02-15 17:00:00","2018-08-10 19:12:36"
"122","Buruku","7","7.420000","9.220000","2019-02-15 17:00:00","2018-08-10 19:12:38"
"123","Gboko","7","7.340000","9.000000","2019-02-15 17:00:00","2018-08-10 19:12:39"
"124","Guma","7","7.950000","8.750000","2019-02-15 17:00:00","2018-08-10 19:12:40"
"125","Gwer East","7","7.440000","8.400000","2019-02-15 17:00:00","2018-08-10 19:12:40"
"126","Gwer West","7","7.660000","8.180000","2019-02-15 17:00:00","2018-08-10 19:12:41"
"127","Katsina-Ala","7","7.170000","9.280000","2019-02-15 17:00:00","2018-08-10 19:12:42"
"128","Konshisha","7","7.100000","8.570000","2019-02-15 17:00:00","2018-08-10 19:12:43"
"129","Kwande","7","6.910000","9.460000","2019-02-15 17:00:00","2018-08-10 19:12:44"
"130","Logo","7","7.600000","9.280000","2019-02-15 17:00:00","2018-08-10 19:12:45"
"131","Makurdi","7","7.730000","8.540000","2019-02-15 17:00:00","2018-08-10 19:12:46"
"132","Obi","7","7.010000","8.330000","2019-02-15 17:00:00","2018-08-10 19:12:47"
"133","Ogbadibo","7","6.990000","7.650000","2019-02-15 17:00:00","2018-08-10 19:12:47"
"134","Ohimini","7","7.240000","7.920000","2019-02-15 17:00:00","2018-08-10 19:12:48"
"135","Oju","7","6.890000","8.350000","2019-02-15 17:00:00","2018-08-10 19:12:49"
"136","Okpokwu","7","7.070000","7.830000","2019-02-15 17:00:00","2018-08-10 19:12:50"
"137","Oturkpo","7","7.200000","8.140000","2019-02-15 17:00:00","2018-08-10 19:12:51"
"138","Tarka","7","7.630000","8.810000","2019-02-15 17:00:00","2018-08-10 19:12:52"
"139","Ukum","7","7.590000","9.630000","2019-02-15 17:00:00","2018-08-10 19:12:53"
"140","Ushongo","7","7.130000","8.970000","2019-02-15 17:00:00","2018-08-10 19:12:53"
"141","Vandeikya","7","6.780000","9.070000","2019-02-15 17:00:00","2018-08-10 19:12:54"
"142","Abadam","8","13.460000","13.450000","2019-02-15 17:00:00","2018-08-10 19:12:55"
"143","Askira/Uba","8","10.660000","13.130000","2019-02-15 17:00:00","2018-08-10 19:12:56"
"144","Bama","8","11.520000","13.690000","2019-02-15 17:00:00","2018-08-10 19:12:57"
"145","Bayo","8","10.270000","11.660000","2019-02-15 17:00:00","2018-08-10 19:12:58"
"146","Biu","8","10.610000","12.190000","2019-02-15 17:00:00","2018-08-10 19:12:59"
"147","Chibok","8","10.870000","12.850000","2019-02-15 17:00:00","2018-08-10 19:12:59"
"148","Damboa","8","11.160000","12.760000","2019-02-15 17:00:00","2018-08-10 19:13:01"
"149","Dikwa","8","12.040000","13.920000","2019-02-15 17:00:00","2018-08-10 19:13:01"
"150","Gubio","8","12.500000","12.780000","2019-02-15 17:00:00","2018-08-10 19:13:03"
"151","Guzamala","8","12.880000","13.220000","2019-02-15 17:00:00","2018-08-10 19:13:04"
"152","Gwoza","8","11.090000","13.690000","2019-02-15 17:00:00","2018-08-10 19:13:05"
"153","Hawul","8","10.470000","12.350000","2019-02-15 17:00:00","2018-08-10 19:13:06"
"154","Jere","8","12.120000","13.170000","2019-02-15 17:00:00","2018-08-10 19:13:06"
"155","Kaga","8","11.520000","12.530000","2019-02-15 17:00:00","2018-08-10 19:13:07"
"156","Kala/Balge","8","12.010000","14.520000","2019-02-15 17:00:00","2018-08-10 19:13:08"
"157","Konduga","8","11.650000","13.420000","2019-02-15 17:00:00","2018-08-10 19:13:09"
"158","Kukawa","8","12.920000","13.560000","2019-02-15 17:00:00","2018-08-10 19:13:10"
"159","Kwaya Kusar","8","10.530000","11.840000","2019-02-15 17:00:00","2018-08-10 19:13:11"
"160","Mafa","8","11.920000","13.600000","2019-02-15 17:00:00","2018-08-10 19:13:12"
"161","Magumeri","8","12.120000","12.830000","2019-02-15 17:00:00","2018-08-10 19:13:13"
"162","Maiduguri","8","11.830000","13.150000","2019-02-15 17:00:00","2018-08-10 19:13:14"
"163","Marte","8","12.360000","13.830000","2019-02-15 17:00:00","2018-08-10 19:13:15"
"164","Mobbar","8","13.130000","12.710000","2019-02-15 17:00:00","2018-08-10 19:13:15"
"165","Monguno","8","12.670000","13.620000","2019-02-15 17:00:00","2018-08-10 19:13:16"
"166","Ngala","8","12.340000","14.190000","2019-02-15 17:00:00","2018-08-10 19:13:17"
"167","Nganzai","8","12.570000","13.080000","2019-02-15 17:00:00","2018-08-10 19:13:18"
"168","Shani","8","10.220000","12.050000","2019-02-15 17:00:00","2018-08-10 19:13:19"
"169","Abi","9","5.860000","7.970000","2019-02-15 17:00:00","2018-08-10 19:13:20"
"170","Akamkpa","9","5.320000","8.350000","2019-02-15 17:00:00","2018-08-10 19:13:21"
"171","Akpabuyo","9","4.880000","8.530000","2019-02-15 17:00:00","2018-08-10 19:13:22"
"172","Bakassi","9","4.610000","8.590000","2019-02-15 17:00:00","2018-08-10 19:13:23"
"173","Bekwarra","9","6.690000","8.900000","2019-02-15 17:00:00","2018-08-10 19:13:24"
"174","Biase","9","5.550000","8.090000","2019-02-15 17:00:00","2018-08-10 19:13:25"
"175","Boki","9","6.250000","8.920000","2019-02-15 17:00:00","2018-08-10 19:13:26"
"176","Calabar Municipal","9","5.020000","8.360000","2019-02-15 17:00:00","2018-08-10 19:13:28"
"177","Calabar South","9","4.860000","8.330000","2019-02-15 17:00:00","2018-08-10 19:13:29"
"178","Etung","9","5.870000","8.790000","2019-02-15 17:00:00","2018-08-10 19:13:29"
"179","Ikom","9","5.960000","8.720000","2019-02-15 17:00:00","2018-08-10 19:13:30"
"180","Obanliku","9","6.530000","9.320000","2019-02-15 17:00:00","2018-08-10 19:13:31"
"181","Obubra","9","6.090000","8.330000","2019-02-15 17:00:00","2018-08-10 19:13:32"
"182","Obudu","9","6.670000","9.160000","2019-02-15 17:00:00","2018-08-10 19:13:33"
"183","Odukpani","9","5.080000","8.350000","2019-02-15 17:00:00","2018-08-10 19:13:34"
"184","Ogoja","9","6.650000","8.800000","2019-02-15 17:00:00","2018-08-10 19:13:35"
"185","Yakuur","9","5.800000","8.180000","2019-02-15 17:00:00","2018-08-10 19:13:36"
"186","Yala","9","6.630000","8.620000","2019-02-15 17:00:00","2018-08-10 19:13:36"
"187","Aniocha North","10","6.350000","6.470000","2019-02-15 17:00:00","2018-08-10 19:13:37"
"188","Aniocha South","10","6.160000","6.450000","2019-02-15 17:00:00","2018-08-10 19:13:38"
"189","Bomadi","10","5.160000","5.930000","2019-02-15 17:00:00","2018-08-10 19:13:39"
"190","Burutu","10","5.350000","5.510000","2019-02-15 17:00:00","2018-08-10 19:13:40"
"191","Ethiope East","10","5.680000","5.960000","2019-02-15 17:00:00","2018-08-10 19:13:41"
"192","Ethiope West","10","5.680000","5.960000","2019-02-15 17:00:00","2018-08-10 19:13:42"
"193","Ika North East","10","6.220000","6.300000","2019-02-15 17:00:00","2018-08-10 19:13:43"
"194","Ika South","10","6.270000","6.170000","2019-02-15 17:00:00","2018-08-10 19:13:43"
"195","Isoko North","10","5.590000","6.220000","2019-02-15 17:00:00","2018-08-10 19:13:44"
"196","Isoko South","10","5.400000","6.200000","2019-02-15 17:00:00","2018-08-10 19:13:45"
"197","Ndokwa East","10","5.650000","6.540000","2019-02-15 17:00:00","2018-08-10 19:13:46"
"198","Ndokwa West","10","5.740000","6.370000","2019-02-15 17:00:00","2018-08-10 19:13:47"
"199","Okpe","10","5.500000","6.330000","2019-02-15 17:00:00","2018-08-10 19:13:48"
"200","Oshimili North","10","6.410000","6.620000","2019-02-15 17:00:00","2018-08-10 19:13:49"
"201","Oshimili South","10","6.070000","6.620000","2019-02-15 17:00:00","2018-08-10 19:13:50"
"202","Patani","10","5.230000","6.190000","2019-02-15 17:00:00","2018-08-10 19:13:50"
"203","Sapele","10","5.880000","5.690000","2019-02-15 17:00:00","2018-08-10 19:13:52"
"204","Udu","10","5.470000","5.840000","2019-02-15 17:00:00","2018-08-10 19:13:53"
"205","Ughelli North","10","5.660000","6.110000","2019-02-15 17:00:00","2018-08-10 19:13:53"
"206","Ughelli South","10","5.500000","5.990000","2019-02-15 17:00:00","2018-08-10 19:13:54"
"207","Ukwuani","10","5.820000","6.200000","2019-02-15 17:00:00","2018-08-10 19:13:55"
"208","Uvwie","10","5.560000","5.780000","2019-02-15 17:00:00","2018-08-10 19:13:56"
"209","Warri North","10","5.960000","5.140000","2019-02-15 17:00:00","2018-08-10 19:13:58"
"210","Warri South","10","5.580000","5.440000","2019-02-15 17:00:00","2018-08-10 19:13:59"
"211","Warri South West","10","5.580000","5.440000","2019-02-15 17:00:00","2018-08-10 19:14:00"
"212","Abakaliki","11","6.320000","8.110000","2019-02-15 17:00:00","2018-08-10 19:14:01"
"213","Afikpo North","11","5.910000","7.940000","2019-02-15 17:00:00","2018-08-10 19:14:02"
"214","Afikpo South (Edda)","11","5.780000","7.840000","2019-02-15 17:00:00","2018-08-10 19:14:03"
"215","Ebonyi","11","6.180000","7.960000","2019-02-15 17:00:00","2018-08-10 19:14:03"
"216","Ezza North","11","6.280000","7.980000","2019-02-15 17:00:00","2018-08-10 19:14:05"
"217","Ezza South","11","6.110000","8.020000","2019-02-15 17:00:00","2018-08-10 19:14:06"
"218","Ikwo","11","6.070000","8.200000","2019-02-15 17:00:00","2018-08-10 19:14:07"
"219","Ishielu","11","6.390000","7.830000","2019-02-15 17:00:00","2018-08-10 19:14:07"
"220","Ivo","11","5.910000","7.630000","2019-02-15 17:00:00","2018-08-10 19:14:08"
"221","Izzi","11","6.180000","7.960000","2019-02-15 17:00:00","2018-08-10 19:14:09"
"222","Ohaozara","11","5.990000","7.760000","2019-02-15 17:00:00","2018-08-10 19:14:10"
"223","Ohaukwu","11","6.470000","8.000000","2019-02-15 17:00:00","2018-08-10 19:14:11"
"224","Onicha","11","6.110000","7.820000","2019-02-15 17:00:00","2018-08-10 19:14:12"
"225","Akoko-Edo","12","7.350000","6.110000","2019-02-15 17:00:00","2018-08-10 19:14:13"
"226","Egor","12","6.370000","5.570000","2019-02-15 17:00:00","2018-08-10 19:14:14"
"227","Esan Central","12","6.690000","6.220000","2019-02-15 17:00:00","2018-08-10 19:14:15"
"228","Esan North-East","12","6.730000","6.340000","2019-02-15 17:00:00","2018-08-10 19:14:16"
"229","Esan South-East","12","6.620000","6.490000","2019-02-15 17:00:00","2018-08-10 19:14:17"
"230","Esan West","12","6.690000","6.130000","2019-02-15 17:00:00","2018-08-10 19:14:18"
"231","Etsako Central","12","7.010000","6.450000","2019-02-15 17:00:00","2018-08-10 19:14:18"
"232","Etsako East","12","7.260000","6.450000","2019-02-15 17:00:00","2018-08-10 19:14:19"
"233","Etsako West","12","7.010000","6.280000","2019-02-15 17:00:00","2018-08-10 19:14:20"
"234","Igueben","12","6.520000","6.220000","2019-02-15 17:00:00","2018-08-10 19:14:21"
"235","Ikpoba Okha","12","6.160000","5.690000","2019-02-15 17:00:00","2018-08-10 19:14:22"
"236","Orhionmwon","12","6.120000","5.980000","2019-02-15 17:00:00","2018-08-10 19:14:23"
"237","Oredo","12","6.230000","5.540000","2019-02-15 17:00:00","2018-08-10 19:14:24"
"238","Ovia North-East","12","6.500000","5.600000","2019-02-15 17:00:00","2018-08-10 19:14:25"
"239","Ovia South-West","12","6.470000","5.310000","2019-02-15 17:00:00","2018-08-10 19:14:26"
"240","Owan East","12","7.100000","6.030000","2019-02-15 17:00:00","2018-08-10 19:14:26"
"241","Owan West","12","6.930000","5.860000","2019-02-15 17:00:00","2018-08-10 19:14:27"
"242","Uhunmwonde","12","6.460000","5.980000","2019-02-15 17:00:00","2018-08-10 19:14:28"
"243","Ado Ekiti","13","7.610000","5.240000","2019-02-15 17:00:00","2018-08-10 19:14:29"
"244","Efon","13","7.690000","4.910000","2019-02-15 17:00:00","2018-08-10 19:14:30"
"245","Ekiti East","13","7.730000","5.670000","2019-02-15 17:00:00","2018-08-10 19:14:31"
"246","Ekiti South-West","13","7.670000","5.310000","2019-02-15 17:00:00","2018-08-10 19:14:32"
"247","Ekiti West","13","7.670000","5.310000","2019-02-15 17:00:00","2018-08-10 19:14:32"
"248","Emure","13","7.430000","5.540000","2019-02-15 17:00:00","2018-08-10 19:14:34"
"249","Gbonyin","13","7.600000","5.500000","2019-02-15 17:00:00","2018-08-10 19:14:34"
"250","Ido Osi","13","7.860000","5.210000","2019-02-15 17:00:00","2018-08-10 19:14:35"
"251","Ijero","13","7.810000","5.070000","2019-02-15 17:00:00","2018-08-10 19:14:36"
"252","Ikere","13","7.500000","5.230000","2019-02-15 17:00:00","2018-08-10 19:14:37"
"253","Ikole","13","7.800000","5.510000","2019-02-15 17:00:00","2018-08-10 19:14:38"
"254","Ilejemeje","13","7.960000","5.240000","2019-02-15 17:00:00","2018-08-10 19:14:39"
"255","Irepodun/Ifelodun","13","7.730000","5.250000","2019-02-15 17:00:00","2018-08-10 19:14:40"
"256","Ise/Orun","13","7.430000","5.410000","2019-02-15 17:00:00","2018-08-10 19:14:41"
"257","Moba","13","7.990000","5.120000","2019-02-15 17:00:00","2018-08-10 19:14:41"
"258","Oye","13","7.800000","5.330000","2019-02-15 17:00:00","2018-08-10 19:14:42"
"259","Aninri","14","6.040000","7.590000","2019-02-15 17:00:00","2018-08-10 19:14:43"
"260","Awgu","14","6.060000","7.480000","2019-02-15 17:00:00","2018-08-10 19:14:44"
"261","Enugu East","14","6.460000","7.550000","2019-02-15 17:00:00","2018-08-10 19:14:45"
"262","Enugu North","14","6.460000","7.550000","2019-02-15 17:00:00","2018-08-10 19:14:46"
"263","Enugu South","14","6.380000","7.510000","2019-02-15 17:00:00","2018-08-10 19:14:47"
"264","Ezeagu","14","6.400000","7.220000","2019-02-15 17:00:00","2018-08-10 19:14:48"
"265","Igbo Etiti","14","6.670000","7.420000","2019-02-15 17:00:00","2018-08-10 19:14:49"
"266","Igbo Eze North","14","6.990000","7.480000","2019-02-15 17:00:00","2018-08-10 19:14:49"
"267","Igbo Eze South","14","6.940000","7.380000","2019-02-15 17:00:00","2018-08-10 19:14:50"
"268","Isi Uzo","14","6.730000","7.740000","2019-02-15 17:00:00","2018-08-10 19:14:51"
"269","Nkanu East","14","6.310000","7.650000","2019-02-15 17:00:00","2018-08-10 19:14:52"
"270","Nkanu West","14","6.330000","7.500000","2019-02-15 17:00:00","2018-08-10 19:14:53"
"271","Nsukka","14","6.840000","7.370000","2019-02-15 17:00:00","2018-08-10 19:14:54"
"272","Oji River","14","6.250000","7.270000","2019-02-15 17:00:00","2018-08-10 19:14:55"
"273","Udenu","14","6.880000","7.550000","2019-02-15 17:00:00","2018-08-10 19:14:56"
"274","Udi","14","6.480000","7.390000","2019-02-15 17:00:00","2018-08-10 19:14:56"
"275","Uzo-Uwani","14","6.740000","7.140000","2019-02-15 17:00:00","2018-08-10 19:14:57"
"276","Akko","15","10.120000","11.030000","2019-02-15 17:00:00","2018-08-10 19:14:58"
"277","Balanga","15","9.830000","11.660000","2019-02-15 17:00:00","2018-08-10 19:14:59"
"278","Billiri","15","9.850000","11.120000","2019-02-15 17:00:00","2018-08-10 19:15:00"
"279","Dukku","15","10.820000","10.770000","2019-02-15 17:00:00","2018-08-10 19:15:00"
"280","Funakaye","15","10.730000","11.390000","2019-02-15 17:00:00","2018-08-10 19:15:01"
"281","Gombe","15","10.280000","11.170000","2019-02-15 17:00:00","2018-08-10 19:15:02"
"282","Kaltungo","15","9.840000","11.390000","2019-02-15 17:00:00","2018-08-10 19:15:03"
"283","Kwami","15","10.510000","11.250000","2019-02-15 17:00:00","2018-08-10 19:15:04"
"284","Nafada","15","11.090000","11.210000","2019-02-15 17:00:00","2018-08-10 19:15:05"
"285","Shongom","15","9.670000","11.300000","2019-02-15 17:00:00","2018-08-10 19:15:06"
"286","Yamaltu/Deba","15","10.280000","11.480000","2019-02-15 17:00:00","2018-08-10 19:15:06"
"287","Aboh Mbaise","16","5.420000","7.250000","2019-02-15 17:00:00","2018-08-10 19:15:07"
"288","Ahiazu Mbaise","16","5.540000","7.240000","2019-02-15 17:00:00","2018-08-10 19:15:08"
"289","Ehime Mbano","16","5.670000","7.310000","2019-02-15 17:00:00","2018-08-10 19:15:09"
"290","Ezinihitte","16","5.490000","7.320000","2019-02-15 17:00:00","2018-08-10 19:15:10"
"291","Ideato North","16","5.800000","7.130000","2019-02-15 17:00:00","2018-08-10 19:15:11"
"292","Ideato South","16","5.800000","7.130000","2019-02-15 17:00:00","2018-08-10 19:15:12"
"293","Ihitte/Uboma","16","5.620000","7.350000","2019-02-15 17:00:00","2018-08-10 19:15:12"
"294","Ikeduru","16","5.580000","7.160000","2019-02-15 17:00:00","2018-08-10 19:15:13"
"295","Isiala Mbano","16","5.710000","7.180000","2019-02-15 17:00:00","2018-08-10 19:15:14"
"296","Isu","16","5.700000","7.060000","2019-02-15 17:00:00","2018-08-10 19:15:15"
"297","Mbaitoli","16","5.580000","7.030000","2019-02-15 17:00:00","2018-08-10 19:15:16"
"298","Ngor Okpala","16","5.310000","7.140000","2019-02-15 17:00:00","2018-08-10 19:15:17"
"299","Njaba","16","5.700000","7.000000","2019-02-15 17:00:00","2018-08-10 19:15:18"
"300","Nkwerre","16","5.760000","7.100000","2019-02-15 17:00:00","2018-08-10 19:15:18"
"301","Nwangele","16","5.720000","7.130000","2019-02-15 17:00:00","2018-08-10 19:15:19"
"302","Oguta","16","5.710000","6.810000","2019-02-15 17:00:00","2018-08-10 19:15:20"
"303","Ohaji/Egbema","16","5.310000","6.880000","2019-02-15 17:00:00","2018-08-10 19:15:21"
"304","Okigwe","16","5.820000","7.340000","2019-02-15 17:00:00","2018-08-10 19:15:22"
"305","Orlu","16","5.780000","7.040000","2019-02-15 17:00:00","2018-08-10 19:15:23"
"306","Orsu","16","5.780000","7.040000","2019-02-15 17:00:00","2018-08-10 19:15:23"
"307","Oru East","16","5.670000","6.940000","2019-02-15 17:00:00","2018-08-10 19:15:24"
"308","Oru West","16","5.740000","6.910000","2019-02-15 17:00:00","2018-08-10 19:15:25"
"309","Owerri Municipal","16","5.490000","7.020000","2019-02-15 17:00:00","2018-08-10 19:15:26"
"310","Owerri North","16","5.460000","7.110000","2019-02-15 17:00:00","2018-08-10 19:15:27"
"311","Owerri West","16","5.420000","6.990000","2019-02-15 17:00:00","2018-08-10 19:15:28"
"312","Unuimo","16","5.780000","7.230000","2019-02-15 17:00:00","2018-08-10 19:15:29"
"313","Obowo","16","5.600000","7.320000","2019-02-15 17:00:00","2018-08-10 19:15:30"
"314","Auyo","17","12.360000","9.990000","2019-02-15 17:00:00","2018-08-10 19:15:31"
"315","Babura","17","12.610000","8.880000","2019-02-15 17:00:00","2018-08-10 19:15:32"
"316","Biriniwa","17","12.840000","10.040000","2019-02-15 17:00:00","2018-08-10 19:15:33"
"317","Birnin Kudu","17","11.450000","9.480000","2019-02-15 17:00:00","2018-08-10 19:15:34"
"318","Buji","17","11.680000","9.770000","2019-02-15 17:00:00","2018-08-10 19:15:35"
"319","Dutse","17","11.700000","9.330000","2019-02-15 17:00:00","2018-08-10 19:15:35"
"320","Gagarawa","17","12.410000","9.530000","2019-02-15 17:00:00","2018-08-10 19:15:36"
"321","Garki","17","12.430000","9.180000","2019-02-15 17:00:00","2018-08-10 19:15:37"
"322","Gumel","17","12.620000","9.380000","2019-02-15 17:00:00","2018-08-10 19:15:38"
"323","Guri","17","12.630000","10.480000","2019-02-15 17:00:00","2018-08-10 19:15:39"
"324","Gwaram","17","11.280000","9.880000","2019-02-15 17:00:00","2018-08-10 19:15:40"
"325","Gwiwa","17","12.740000","8.270000","2019-02-15 17:00:00","2018-08-10 19:15:41"
"326","Hadejia","17","12.450000","10.040000","2019-02-15 17:00:00","2018-08-10 19:15:41"
"327","Jahun","17","12.080000","9.630000","2019-02-15 17:00:00","2018-08-10 19:15:42"
"328","Kafin Hausa","17","12.190000","9.920000","2019-02-15 17:00:00","2018-08-10 19:15:43"
"329","Kazaure","17","12.650000","8.410000","2019-02-15 17:00:00","2018-08-10 19:15:44"
"330","Kiri Kasama","17","12.590000","10.210000","2019-02-15 17:00:00","2018-08-10 19:15:45"
"331","Kiyawa","17","11.780000","9.600000","2019-02-15 17:00:00","2018-08-10 19:15:46"
"332","Kaugama","17","12.470000","9.740000","2019-02-15 17:00:00","2018-08-10 19:15:46"
"333","Maigatari","17","12.810000","9.450000","2019-02-15 17:00:00","2018-08-10 19:15:47"
"334","Malam Madori","17","12.550000","10.030000","2019-02-15 17:00:00","2018-08-10 19:15:48"
"335","Miga","17","12.240000","9.710000","2019-02-15 17:00:00","2018-08-10 19:15:49"
"336","Ringim","17","12.150000","9.160000","2019-02-15 17:00:00","2018-08-10 19:15:50"
"337","Roni","17","12.570000","8.350000","2019-02-15 17:00:00","2018-08-10 19:15:51"
"338","Sule Tankarkar","17","12.600000","9.230000","2019-02-15 17:00:00","2018-08-10 19:15:51"
"339","Taura","17","12.220000","9.270000","2019-02-15 17:00:00","2018-08-10 19:15:52"
"340","Yankwashi","17","12.780000","8.510000","2019-02-15 17:00:00","2018-08-10 19:15:53"
"341","Birnin Gwari","18","10.660000","6.540000","2019-02-15 17:00:00","2018-08-10 19:15:54"
"342","Chikun","18","10.270000","7.180000","2019-02-15 17:00:00","2018-08-10 19:15:55"
"343","Giwa","18","11.280000","7.420000","2019-02-15 17:00:00","2018-08-10 19:15:55"
"344","Igabi","18","10.800000","7.520000","2019-02-15 17:00:00","2018-08-10 19:15:56"
"345","Ikara","18","11.180000","8.230000","2019-02-15 17:00:00","2018-08-10 19:15:57"
"346","Jaba","18","9.480000","8.020000","2019-02-15 17:00:00","2018-08-10 19:15:58"
"347","Jema'a","18","9.360000","8.220000","2019-02-15 17:00:00","2018-08-10 19:15:59"
"348","Kachia","18","9.870000","7.960000","2019-02-15 17:00:00","2018-08-10 19:16:00"
"349","Kaduna North","18","10.540000","7.450000","2019-02-15 17:00:00","2018-08-10 19:16:01"
"350","Kaduna South","18","10.450000","7.410000","2019-02-15 17:00:00","2018-08-10 19:16:01"
"351","Kagarko","18","9.490000","7.700000","2019-02-15 17:00:00","2018-08-10 19:16:02"
"352","Kajuru","18","10.320000","7.680000","2019-02-15 17:00:00","2018-08-10 19:17:51"
"353","Kaura","18","9.630000","8.500000","2019-02-15 17:00:00","2018-08-10 19:17:52"
"354","Kauru","18","10.570000","8.150000","2019-02-15 17:00:00","2018-08-10 19:17:53"
"355","Kubau","18","10.770000","8.120000","2019-02-15 17:00:00","2018-08-10 19:17:53"
"356","Kudan","18","11.260000","7.760000","2019-02-15 17:00:00","2018-08-10 19:17:54"
"357","Lere","18","10.410000","8.570000","2019-02-15 17:00:00","2018-08-10 19:17:55"
"358","Makarfi","18","11.350000","7.880000","2019-02-15 17:00:00","2018-08-10 19:17:56"
"359","Sabon Gari","18","11.120000","7.730000","2019-02-15 17:00:00","2018-08-10 19:17:57"
"360","Sanga","18","9.220000","8.530000","2019-02-15 17:00:00","2018-08-10 19:17:58"
"361","Soba","18","10.980000","8.060000","2019-02-15 17:00:00","2018-08-10 19:17:59"
"362","Zangon Kataf","18","9.890000","8.220000","2019-02-15 17:00:00","2018-08-10 19:18:00"
"363","Zaria","18","11.090000","7.720000","2019-02-15 17:00:00","2018-08-10 19:18:01"
"364","Ajingi","19","11.970000","9.040000","2019-02-15 17:00:00","2018-08-10 19:18:02"
"365","Albasu","19","11.670000","9.140000","2019-02-15 17:00:00","2018-08-10 19:18:02"
"366","Bagwai","19","12.150000","8.140000","2019-02-15 17:00:00","2018-08-10 19:18:03"
"367","Bebeji","19","11.660000","8.260000","2019-02-15 17:00:00","2018-08-10 19:18:04"
"368","Bichi","19","12.230000","8.240000","2019-02-15 17:00:00","2018-08-10 19:18:05"
"369","Bunkure","19","11.700000","8.540000","2019-02-15 17:00:00","2018-08-10 19:18:06"
"370","Dala","19","12.010000","8.500000","2019-02-15 17:00:00","2018-08-10 19:18:07"
"371","Dambatta","19","12.440000","8.620000","2019-02-15 17:00:00","2018-08-10 19:18:08"
"372","Dawakin Kudu","19","11.840000","8.590000","2019-02-15 17:00:00","2018-08-10 19:18:09"
"373","Dawakin Tofa","19","12.150000","8.420000","2019-02-15 17:00:00","2018-08-10 19:18:09"
"374","Doguwa","19","10.810000","8.700000","2019-02-15 17:00:00","2018-08-10 19:18:10"
"375","Fagge","19","12.020000","8.530000","2019-02-15 17:00:00","2018-08-10 19:18:11"
"376","Gabasawa","19","12.160000","8.880000","2019-02-15 17:00:00","2018-08-10 19:18:12"
"377","Garko","19","11.550000","8.860000","2019-02-15 17:00:00","2018-08-10 19:18:13"
"378","Garun Mallam","19","11.680000","8.370000","2019-02-15 17:00:00","2018-08-10 19:18:14"
"379","Gaya","19","11.860000","9.000000","2019-02-15 17:00:00","2018-08-10 19:18:14"
"380","Gezawa","19","12.100000","8.750000","2019-02-15 17:00:00","2018-08-10 19:18:15"
"381","Gwale","19","11.980000","8.490000","2019-02-15 17:00:00","2018-08-10 19:18:16"
"382","Gwarzo","19","11.920000","7.930000","2019-02-15 17:00:00","2018-08-10 19:18:17"
"383","Kabo","19","11.880000","8.200000","2019-02-15 17:00:00","2018-08-10 19:18:18"
"384","Kano Municipal","19","12.000000","8.590000","2019-02-15 17:00:00","2018-08-10 19:18:19"
"385","Karaye","19","11.780000","8.010000","2019-02-15 17:00:00","2018-08-10 19:18:20"
"386","Kibiya","19","11.530000","8.660000","2019-02-15 17:00:00","2018-08-10 19:18:21"
"387","Kiru","19","11.700000","8.140000","2019-02-15 17:00:00","2018-08-10 19:18:21"
"388","Kumbotso","19","11.920000","8.590000","2019-02-15 17:00:00","2018-08-10 19:18:22"
"389","Kunchi","19","12.500000","8.270000","2019-02-15 17:00:00","2018-08-10 19:18:23"
"390","Kura","19","11.770000","8.420000","2019-02-15 17:00:00","2018-08-10 19:18:24"
"391","Madobi","19","11.830000","8.370000","2019-02-15 17:00:00","2018-08-10 19:18:25"
"392","Makoda","19","12.420000","8.430000","2019-02-15 17:00:00","2018-08-10 19:18:26"
"393","Minjibir","19","12.190000","8.630000","2019-02-15 17:00:00","2018-08-10 19:18:27"
"394","Nasarawa","19","12.000000","8.580000","2019-02-15 17:00:00","2018-08-10 19:18:28"
"395","Rano","19","11.560000","8.580000","2019-02-15 17:00:00","2018-08-10 19:18:28"
"396","Rimin Gado","19","11.970000","8.250000","2019-02-15 17:00:00","2018-08-10 19:18:29"
"397","Rogo","19","11.550000","7.820000","2019-02-15 17:00:00","2018-08-10 19:18:30"
"398","Shanono","19","12.050000","7.990000","2019-02-15 17:00:00","2018-08-10 19:18:31"
"399","Sumaila","19","11.350000","8.880000","2019-02-15 17:00:00","2018-08-10 19:18:32"
"400","Takai","19","11.570000","9.110000","2019-02-15 17:00:00","2018-08-10 19:18:33"
"401","Tarauni","19","11.960000","8.540000","2019-02-15 17:00:00","2018-08-10 19:18:34"
"402","Tofa","19","12.050000","8.270000","2019-02-15 17:00:00","2018-08-10 19:18:34"
"403","Tsanyawa","19","12.300000","7.990000","2019-02-15 17:00:00","2018-08-10 19:18:35"
"404","Tudun Wada","19","11.250000","8.400000","2019-02-15 17:00:00","2018-08-10 19:18:36"
"405","Ungogo","19","12.090000","8.500000","2019-02-15 17:00:00","2018-08-10 19:18:37"
"406","Warawa","19","12.000000","8.590000","2019-02-15 17:00:00","2018-08-10 19:18:38"
"407","Wudil","19","11.790000","8.840000","2019-02-15 17:00:00","2018-08-10 19:18:39"
"408","Bakori","20","11.560000","7.420000","2019-02-15 17:00:00","2018-08-10 19:18:39"
"409","Batagarawa","20","12.900000","7.600000","2019-02-15 17:00:00","2018-08-10 19:18:40"
"410","Batsari","20","12.760000","7.250000","2019-02-15 17:00:00","2018-08-10 19:18:41"
"411","Baure","20","12.800000","8.790000","2019-02-15 17:00:00","2018-08-10 19:18:42"
"412","Bindawa","20","12.740000","7.830000","2019-02-15 17:00:00","2018-08-10 19:18:43"
"413","Charanchi","20","12.670000","7.730000","2019-02-15 17:00:00","2018-08-10 19:18:44"
"414","Dandume","20","11.390000","7.220000","2019-02-15 17:00:00","2018-08-10 19:18:45"
"415","Danja","20","11.380000","7.560000","2019-02-15 17:00:00","2018-08-10 19:18:45"
"416","Dan Musa","20","12.260000","7.330000","2019-02-15 17:00:00","2018-08-10 19:18:47"
"417","Daura","20","13.030000","8.320000","2019-02-15 17:00:00","2018-08-10 19:18:48"
"418","Dutsi","20","12.930000","8.160000","2019-02-15 17:00:00","2018-08-10 19:18:49"
"419","Dutsin Ma","20","12.450000","7.500000","2019-02-15 17:00:00","2018-08-10 19:18:49"
"420","Faskari","20","11.710000","7.180000","2019-02-15 17:00:00","2018-08-10 19:18:50"
"421","Funtua","20","11.520000","7.310000","2019-02-15 17:00:00","2018-08-10 19:18:51"
"422","Ingawa","20","12.640000","8.050000","2019-02-15 17:00:00","2018-08-10 19:18:52"
"423","Jibia","20","13.090000","7.220000","2019-02-15 17:00:00","2018-08-10 19:18:53"
"424","Kafur","20","11.650000","7.650000","2019-02-15 17:00:00","2018-08-10 19:18:54"
"425","Kaita","20","13.200000","7.740000","2019-02-15 17:00:00","2018-08-10 19:18:55"
"426","Kankara","20","11.930000","7.410000","2019-02-15 17:00:00","2018-08-10 19:18:56"
"427","Kankia","20","12.460000","7.830000","2019-02-15 17:00:00","2018-08-10 19:18:56"
"428","Katsina","20","12.980000","7.620000","2019-02-15 17:00:00","2018-08-10 19:18:58"
"429","Kurfi","20","12.670000","7.480000","2019-02-15 17:00:00","2018-08-10 19:18:59"
"430","Kusada","20","12.460000","7.980000","2019-02-15 17:00:00","2018-08-10 19:18:59"
"431","Mai'Adua","20","13.150000","8.230000","2019-02-15 17:00:00","2018-08-10 19:19:00"
"432","Malumfashi","20","11.790000","7.620000","2019-02-15 17:00:00","2018-08-10 19:19:01"
"433","Mani","20","12.850000","7.870000","2019-02-15 17:00:00","2018-08-10 19:19:02"
"434","Mashi","20","13.100000","8.000000","2019-02-15 17:00:00","2018-08-10 19:19:03"
"435","Matazu","20","12.240000","7.670000","2019-02-15 17:00:00","2018-08-10 19:19:04"
"436","Musawa","20","12.130000","7.670000","2019-02-15 17:00:00","2018-08-10 19:19:05"
"437","Rimi","20","12.850000","7.710000","2019-02-15 17:00:00","2018-08-10 19:19:05"
"438","Sabuwa","20","11.330000","7.070000","2019-02-15 17:00:00","2018-08-10 19:19:06"
"439","Safana","20","12.410000","7.410000","2019-02-15 17:00:00","2018-08-10 19:19:07"
"440","Sandamu","20","12.960000","8.360000","2019-02-15 17:00:00","2018-08-10 19:19:08"
"441","Zango","20","12.900000","8.530000","2019-02-15 17:00:00","2018-08-10 19:19:09"
"442","Aleiro","21","12.360000","4.440000","2019-02-15 17:00:00","2018-08-10 19:19:10"
"443","Arewa Dandi","21","12.690000","4.080000","2019-02-15 17:00:00","2018-08-10 19:19:11"
"444","Argungu","21","12.750000","4.540000","2019-02-15 17:00:00","2018-08-10 19:19:11"
"445","Augie","21","12.890000","4.600000","2019-02-15 17:00:00","2018-08-10 19:19:12"
"446","Bagudo","21","11.400000","4.230000","2019-02-15 17:00:00","2018-08-10 19:19:13"
"447","Birnin Kebbi","21","12.430000","4.200000","2019-02-15 17:00:00","2018-08-10 19:19:14"
"448","Bunza","21","12.090000","4.010000","2019-02-15 17:00:00","2018-08-10 19:19:15"
"449","Dandi","21","12.690000","4.080000","2019-02-15 17:00:00","2018-08-10 19:19:16"
"450","Fakai","21","11.580000","4.810000","2019-02-15 17:00:00","2018-08-10 19:19:17"
"451","Gwandu","21","12.500000","4.640000","2019-02-15 17:00:00","2018-08-10 19:19:18"
"452","Jega","21","12.230000","4.380000","2019-02-15 17:00:00","2018-08-10 19:19:19"
"453","Kalgo","21","12.330000","4.200000","2019-02-15 17:00:00","2018-08-10 19:19:19"
"454","Koko/Besse","21","11.450000","4.440000","2019-02-15 17:00:00","2018-08-10 19:19:20"
"455","Maiyama","21","11.810000","4.360000","2019-02-15 17:00:00","2018-08-10 19:19:21"
"456","Ngaski","21","10.360000","4.850000","2019-02-15 17:00:00","2018-08-10 19:19:22"
"457","Sakaba","21","11.070000","5.600000","2019-02-15 17:00:00","2018-08-10 19:19:23"
"458","Shanga","21","11.210000","4.580000","2019-02-15 17:00:00","2018-08-10 19:19:24"
"459","Suru","21","11.930000","4.180000","2019-02-15 17:00:00","2018-08-10 19:19:24"
"460","Wasagu/Danko","21","11.380000","5.650000","2019-02-15 17:00:00","2018-08-10 19:19:25"
"461","Yauri","21","11.680000","4.070000","2019-02-15 17:00:00","2018-08-10 19:19:26"
"462","Zuru","21","11.440000","5.230000","2019-02-15 17:00:00","2018-08-10 19:19:27"
"463","Adavi","22","7.670000","6.430000","2019-02-15 17:00:00","2018-08-10 19:19:28"
"464","Ajaokuta","22","7.540000","6.640000","2019-02-15 17:00:00","2018-08-10 19:19:28"
"465","Ankpa","22","7.410000","7.620000","2019-02-15 17:00:00","2018-08-10 19:19:29"
"466","Bassa","22","7.770000","7.050000","2019-02-15 17:00:00","2018-08-10 19:19:30"
"467","Dekina","22","7.590000","7.220000","2019-02-15 17:00:00","2018-08-10 19:19:31"
"468","Ibaji","22","6.830000","6.790000","2019-02-15 17:00:00","2018-08-10 19:19:32"
"469","Idah","22","7.110000","6.740000","2019-02-15 17:00:00","2018-08-10 19:19:33"
"470","Igalamela Odolu","22","7.080000","7.050000","2019-02-15 17:00:00","2018-08-10 19:19:34"
"471","Ijumu","22","7.870000","5.940000","2019-02-15 17:00:00","2018-08-10 19:19:35"
"472","Kabba/Bunu","22","8.220000","6.200000","2019-02-15 17:00:00","2018-08-10 19:19:36"
"473","Kogi","22","7.910000","6.580000","2019-02-15 17:00:00","2018-08-10 19:19:37"
"474","Lokoja","22","7.800000","6.730000","2019-02-15 17:00:00","2018-08-10 19:19:37"
"475","Mopa Muro","22","8.140000","5.860000","2019-02-15 17:00:00","2018-08-10 19:19:38"
"476","Ofu","22","7.340000","7.050000","2019-02-15 17:00:00","2018-08-10 19:19:39"
"477","Ogori/Magongo","22","7.470000","6.160000","2019-02-15 17:00:00","2018-08-10 19:19:40"
"478","Okehi","22","7.720000","6.340000","2019-02-15 17:00:00","2018-08-10 19:19:41"
"479","Okene","22","7.560000","6.240000","2019-02-15 17:00:00","2018-08-10 19:19:42"
"480","Olamaboro","22","7.160000","7.570000","2019-02-15 17:00:00","2018-08-10 19:19:43"
"481","Omala","22","7.810000","7.520000","2019-02-15 17:00:00","2018-08-10 19:19:43"
"482","Yagba East","22","8.140000","5.690000","2019-02-15 17:00:00","2018-08-10 19:19:44"
"483","Yagba West","22","8.310000","5.520000","2019-02-15 17:00:00","2018-08-10 19:19:45"
"484","Asa","23","8.420000","4.440000","2019-02-15 17:00:00","2018-08-10 19:19:46"
"485","Baruten","23","9.350000","3.580000","2019-02-15 17:00:00","2018-08-10 19:19:47"
"486","Edu","23","8.890000","5.140000","2019-02-15 17:00:00","2018-08-10 19:19:48"
"487","Ekiti","23","8.120000","5.330000","2019-02-15 17:00:00","2018-08-10 19:19:49"
"488","Ifelodun","23","8.540000","5.140000","2019-02-15 17:00:00","2018-08-10 19:19:49"
"489","Ilorin East","23","8.610000","4.790000","2019-02-15 17:00:00","2018-08-10 19:19:50"
"490","Ilorin South","23","8.480000","4.540000","2019-02-15 17:00:00","2018-08-10 19:19:51"
"491","Ilorin West","23","8.480000","4.540000","2019-02-15 17:00:00","2018-08-10 19:19:52"
"492","Irepodun","23","8.150000","4.850000","2019-02-15 17:00:00","2018-08-10 19:19:53"
"493","Isin","23","8.230000","5.020000","2019-02-15 17:00:00","2018-08-10 19:19:54"
"494","Kaiama","23","9.610000","3.940000","2019-02-15 17:00:00","2018-08-10 19:19:55"
"495","Moro","23","8.900000","4.650000","2019-02-15 17:00:00","2018-08-10 19:19:56"
"496","Offa","23","8.140000","4.720000","2019-02-15 17:00:00","2018-08-10 19:19:57"
"497","Oke Ero","23","8.230000","5.350000","2019-02-15 17:00:00","2018-08-10 19:19:58"
"498","Oyun","23","8.220000","4.620000","2019-02-15 17:00:00","2018-08-10 19:19:59"
"499","Pategi","23","8.720000","5.760000","2019-02-15 17:00:00","2018-08-10 19:20:00"
"500","Agege","24","6.620000","3.320000","2019-02-15 17:00:00","2018-08-10 19:20:01"
"501","Ajeromi-Ifelodun","24","6.460000","3.330000","2019-02-15 17:00:00","2018-08-10 19:20:02"
"502","Alimosho","24","6.570000","3.260000","2019-02-15 17:00:00","2018-08-10 19:20:03"
"503","Amuwo-Odofin","24","6.430000","3.290000","2019-02-15 17:00:00","2018-08-10 19:20:04"
"504","Apapa","24","6.440000","3.360000","2019-02-15 17:00:00","2018-08-10 19:20:05"
"505","Badagry","24","6.480000","3.020000","2019-02-15 17:00:00","2018-08-10 19:20:06"
"506","Epe","24","6.590000","3.980000","2019-02-15 17:00:00","2018-08-10 19:20:06"
"507","Eti Osa","24","6.460000","3.600000","2019-02-15 17:00:00","2018-08-10 19:20:07"
"508","Ibeju-Lekki","24","6.500000","3.800000","2019-02-15 17:00:00","2018-08-10 19:20:08"
"509","Ifako-Ijaiye","24","6.680000","3.290000","2019-02-15 17:00:00","2018-08-10 19:20:09"
"510","Ikeja","24","6.600000","3.350000","2019-02-15 17:00:00","2018-08-10 19:20:10"
"511","Ikorodu","24","6.620000","3.510000","2019-02-15 17:00:00","2018-08-10 19:20:11"
"512","Kosofe","24","6.600000","3.410000","2019-02-15 17:00:00","2018-08-10 19:20:12"
"513","Lagos Island","24","6.450000","3.420000","2019-02-15 17:00:00","2018-08-10 19:20:13"
"514","Lagos Mainland","24","6.500000","3.380000","2019-02-15 17:00:00","2018-08-10 19:20:14"
"515","Mushin","24","6.540000","3.350000","2019-02-15 17:00:00","2018-08-10 19:20:15"
"516","Ojo","24","6.460000","3.160000","2019-02-15 17:00:00","2018-08-10 19:20:16"
"517","Oshodi-Isolo","24","6.540000","3.310000","2019-02-15 17:00:00","2018-08-10 19:20:17"
"518","Shomolu","24","6.540000","3.380000","2019-02-15 17:00:00","2018-08-10 19:20:18"
"519","Surulere","24","6.490000","3.350000","2019-02-15 17:00:00","2018-08-10 19:20:19"
"520","Akwanga","25","8.910000","8.410000","2019-02-15 17:00:00","2018-08-10 19:20:20"
"521","Awe","25","8.110000","9.140000","2019-02-15 17:00:00","2018-08-10 19:20:21"
"522","Doma","25","8.400000","8.360000","2019-02-15 17:00:00","2018-08-10 19:20:22"
"523","Karu","25","9.030000","7.600000","2019-02-15 17:00:00","2018-08-10 19:20:23"
"524","Keana","25","8.150000","8.800000","2019-02-15 17:00:00","2018-08-10 19:20:23"
"525","Keffi","25","8.850000","7.880000","2019-02-15 17:00:00","2018-08-10 19:20:24"
"526","Kokona","25","8.770000","7.980000","2019-02-15 17:00:00","2018-08-10 19:20:25"
"527","Lafia","25","8.510000","8.520000","2019-02-15 17:00:00","2018-08-10 19:20:26"
"528","Nasarawa","25","8.550000","7.710000","2019-02-15 17:00:00","2018-08-10 19:20:27"
"529","Nasarawa Egon","25","8.740000","8.540000","2019-02-15 17:00:00","2018-08-10 19:20:28"
"530","Obi","25","8.380000","8.770000","2019-02-15 17:00:00","2018-08-10 19:20:28"
"531","Toto","25","8.390000","7.080000","2019-02-15 17:00:00","2018-08-10 19:20:29"
"532","Wamba","25","8.940000","8.600000","2019-02-15 17:00:00","2018-08-10 19:20:30"
"533","Agaie","26","9.010000","6.320000","2019-02-15 17:00:00","2018-08-10 19:20:31"
"534","Agwara","26","10.680000","4.480000","2019-02-15 17:00:00","2018-08-10 19:20:32"
"535","Bida","26","9.080000","6.010000","2019-02-15 17:00:00","2018-08-10 19:20:33"
"536","Borgu","26","10.320000","4.150000","2019-02-15 17:00:00","2018-08-10 19:20:34"
"537","Bosso","26","9.650000","6.530000","2019-02-15 17:00:00","2018-08-10 19:20:34"
"538","Chanchaga","26","9.630000","6.550000","2019-02-15 17:00:00","2018-08-10 19:20:35"
"539","Edati","26","9.040000","5.620000","2019-02-15 17:00:00","2018-08-10 19:20:36"
"540","Gbako","26","9.270000","6.030000","2019-02-15 17:00:00","2018-08-10 19:20:37"
"541","Gurara","26","9.340000","7.050000","2019-02-15 17:00:00","2018-08-10 19:20:38"
"542","Katcha","26","9.270000","6.280000","2019-02-15 17:00:00","2018-08-10 19:20:39"
"543","Kontagora","26","10.410000","5.470000","2019-02-15 17:00:00","2018-08-10 19:20:40"
"544","Lapai","26","8.690000","6.660000","2019-02-15 17:00:00","2018-08-10 19:20:41"
"545","Lavun","26","9.410000","5.650000","2019-02-15 17:00:00","2018-08-10 19:20:42"
"546","Magama","26","10.310000","4.980000","2019-02-15 17:00:00","2018-08-10 19:20:43"
"547","Mariga","26","10.740000","5.900000","2019-02-15 17:00:00","2018-08-10 19:20:43"
"548","Mashegu","26","9.950000","5.310000","2019-02-15 17:00:00","2018-08-10 19:20:44"
"549","Mokwa","26","9.240000","5.310000","2019-02-15 17:00:00","2018-08-10 19:20:45"
"550","Moya","26","10.220000","5.390000","2019-02-15 17:00:00","2018-08-10 19:20:46"
"551","Paikoro","26","9.440000","6.790000","2019-02-15 17:00:00","2018-08-10 19:20:47"
"552","Rafi","26","10.110000","6.150000","2019-02-15 17:00:00","2018-08-10 19:20:48"
"553","Rijau","26","11.100000","5.250000","2019-02-15 17:00:00","2018-08-10 19:20:48"
"554","Shiroro","26","9.980000","6.810000","2019-02-15 17:00:00","2018-08-10 19:20:49"
"555","Suleja","26","9.220000","7.190000","2019-02-15 17:00:00","2018-08-10 19:20:50"
"556","Tafa","26","9.240000","7.290000","2019-02-15 17:00:00","2018-08-10 19:20:51"
"557","Wushishi","26","9.720000","6.110000","2019-02-15 17:00:00","2018-08-10 19:20:52"
"558","Abeokuta North","27","7.210000","3.140000","2019-02-15 17:00:00","2018-08-10 19:20:53"
"559","Abeokuta South","27","7.160000","3.350000","2019-02-15 17:00:00","2018-08-10 19:20:54"
"560","Ado-Odo/Ota","27","6.610000","3.060000","2019-02-15 17:00:00","2018-08-10 19:20:54"
"561","Yewa North","27","7.170000","2.860000","2019-02-15 17:00:00","2018-08-10 19:20:55"
"562","Yewa South","27","6.780000","2.980000","2019-02-15 17:00:00","2018-08-10 19:20:56"
"563","Ewekoro","27","6.950000","3.220000","2019-02-15 17:00:00","2018-08-10 19:20:57"
"564","Ifo","27","6.800000","3.240000","2019-02-15 17:00:00","2018-08-10 19:20:58"
"565","Ijebu East","27","6.820000","4.320000","2019-02-15 17:00:00","2018-08-10 19:20:59"
"566","Ijebu North","27","7.030000","3.950000","2019-02-15 17:00:00","2018-08-10 19:21:00"
"567","Ijebu North East","27","6.880000","4.010000","2019-02-15 17:00:00","2018-08-10 19:21:01"
"568","Ijebu Ode","27","6.830000","3.920000","2019-02-15 17:00:00","2018-08-10 19:21:01"
"569","Ikenne","27","6.870000","3.710000","2019-02-15 17:00:00","2018-08-10 19:21:02"
"570","Imeko Afon","27","7.450000","2.840000","2019-02-15 17:00:00","2018-08-10 19:21:03"
"571","Ipokia","27","6.530000","2.840000","2019-02-15 17:00:00","2018-08-10 19:21:04"
"572","Obafemi Owode","27","6.950000","3.510000","2019-02-15 17:00:00","2018-08-10 19:21:05"
"573","Odeda","27","7.290000","3.540000","2019-02-15 17:00:00","2018-08-10 19:21:06"
"574","Odogbolu","27","6.780000","3.780000","2019-02-15 17:00:00","2018-08-10 19:21:07"
"575","Ogun Waterside","27","6.520000","4.360000","2019-02-15 17:00:00","2018-08-10 19:21:08"
"576","Remo North","27","7.010000","3.720000","2019-02-15 17:00:00","2018-08-10 19:21:09"
"577","Shagamu","27","6.830000","3.630000","2019-02-15 17:00:00","2018-08-10 19:21:10"
"578","Akoko North-East","28","7.550000","5.880000","2019-02-15 17:00:00","2018-08-10 19:21:11"
"579","Akoko North-West","28","7.620000","5.770000","2019-02-15 17:00:00","2018-08-10 19:21:12"
"580","Akoko South-West","28","7.380000","5.670000","2019-02-15 17:00:00","2018-08-10 19:21:13"
"581","Akoko South-East","28","7.420000","5.920000","2019-02-15 17:00:00","2018-08-10 19:21:14"
"582","Akure North","28","7.260000","5.210000","2019-02-15 17:00:00","2018-08-10 19:21:15"
"583","Akure South","28","7.210000","5.160000","2019-02-15 17:00:00","2018-08-10 19:21:16"
"584","Ese Odo","28","6.260000","4.940000","2019-02-15 17:00:00","2018-08-10 19:21:16"
"585","Idanre","28","7.090000","5.150000","2019-02-15 17:00:00","2018-08-10 19:21:17"
"586","Ifedore","28","7.390000","5.080000","2019-02-15 17:00:00","2018-08-10 19:21:18"
"587","Ilaje","28","6.260000","4.770000","2019-02-15 17:00:00","2018-08-10 19:21:19"
"588","Ile Oluji/Okeigbo","28","7.280000","4.850000","2019-02-15 17:00:00","2018-08-10 19:21:20"
"589","Irele","28","6.490000","4.870000","2019-02-15 17:00:00","2018-08-10 19:21:21"
"590","Odigbo","28","6.790000","4.870000","2019-02-15 17:00:00","2018-08-10 19:21:21"
"591","Okitipupa","28","6.500000","4.780000","2019-02-15 17:00:00","2018-08-10 19:21:22"
"592","Ondo East","28","7.090000","4.960000","2019-02-15 17:00:00","2018-08-10 19:21:23"
"593","Ondo West","28","7.100000","4.840000","2019-02-15 17:00:00","2018-08-10 19:21:24"
"594","Ose","28","7.020000","5.690000","2019-02-15 17:00:00","2018-08-10 19:21:25"
"595","Owo","28","7.200000","5.590000","2019-02-15 17:00:00","2018-08-10 19:21:26"
"596","Atakunmosa East","29","7.480000","4.790000","2019-02-15 17:00:00","2018-08-10 19:21:27"
"597","Atakunmosa West","29","7.520000","4.670000","2019-02-15 17:00:00","2018-08-10 19:21:27"
"598","Aiyedaade","29","7.200000","4.270000","2019-02-15 17:00:00","2018-08-10 19:21:28"
"599","Aiyedire","29","7.570000","4.250000","2019-02-15 17:00:00","2018-08-10 19:21:29"
"600","Boluwaduro","29","7.940000","4.800000","2019-02-15 17:00:00","2018-08-10 19:21:30"
"601","Boripe","29","7.840000","4.660000","2019-02-15 17:00:00","2018-08-10 19:21:31"
"602","Ede North","29","7.730000","4.470000","2019-02-15 17:00:00","2018-08-10 19:21:32"
"603","Ede South","29","7.650000","4.460000","2019-02-15 17:00:00","2018-08-10 19:21:33"
"604","Ife Central","29","7.560000","4.530000","2019-02-15 17:00:00","2018-08-10 19:21:34"
"605","Ife East","29","7.440000","4.620000","2019-02-15 17:00:00","2018-08-10 19:21:35"
"606","Ife North","29","7.460000","4.440000","2019-02-15 17:00:00","2018-08-10 19:21:36"
"607","Ife South","29","7.200000","4.600000","2019-02-15 17:00:00","2018-08-10 19:21:36"
"608","Egbedore","29","7.780000","4.420000","2019-02-15 17:00:00","2018-08-10 19:21:37"
"609","Ejigbo","29","7.900000","4.320000","2019-02-15 17:00:00","2018-08-10 19:21:38"
"610","Ifedayo","29","7.990000","5.000000","2019-02-15 17:00:00","2018-08-10 19:21:39"
"611","Ifelodun","29","7.920000","4.630000","2019-02-15 17:00:00","2018-08-10 19:21:40"
"612","Ila","29","8.010000","4.900000","2019-02-15 17:00:00","2018-08-10 19:21:41"
"613","Ilesa East","29","7.600000","4.760000","2019-02-15 17:00:00","2018-08-10 19:21:42"
"614","Ilesa West","29","7.640000","4.720000","2019-02-15 17:00:00","2018-08-10 19:21:43"
"615","Irepodun","29","7.900000","4.530000","2019-02-15 17:00:00","2018-08-10 19:21:44"
"616","Irewole","29","7.400000","4.210000","2019-02-15 17:00:00","2018-08-10 19:21:45"
"617","Isokan","29","7.310000","4.170000","2019-02-15 17:00:00","2018-08-10 19:21:46"
"618","Iwo","29","7.630000","4.190000","2019-02-15 17:00:00","2018-08-10 19:21:46"
"619","Obokun","29","7.800000","4.770000","2019-02-15 17:00:00","2018-08-10 19:21:47"
"620","Odo Otin","29","8.000000","4.670000","2019-02-15 17:00:00","2018-08-10 19:21:48"
"621","Ola Oluwa","29","7.740000","4.210000","2019-02-15 17:00:00","2018-08-10 19:21:49"
"622","Olorunda","29","7.860000","4.570000","2019-02-15 17:00:00","2018-08-10 19:21:50"
"623","Oriade","29","7.520000","4.870000","2019-02-15 17:00:00","2018-08-10 19:21:51"
"624","Orolu","29","7.900000","4.470000","2019-02-15 17:00:00","2018-08-10 19:21:52"
"625","Osogbo","29","7.750000","4.550000","2019-02-15 17:00:00","2018-08-10 19:21:53"
"626","Afijio","30","7.840000","3.940000","2019-02-15 17:00:00","2018-08-10 19:21:53"
"627","Akinyele","30","7.550000","3.950000","2019-02-15 17:00:00","2018-08-10 19:21:54"
"628","Atiba","30","7.840000","3.940000","2019-02-15 17:00:00","2018-08-10 19:21:55"
"629","Atisbo","30","8.380000","3.340000","2019-02-15 17:00:00","2018-08-10 19:21:56"
"630","Egbeda","30","7.380000","3.970000","2019-02-15 17:00:00","2018-08-10 19:21:57"
"631","Ibadan North","30","7.410000","3.920000","2019-02-15 17:00:00","2018-08-10 19:21:58"
"632","Ibadan North-East","30","7.360000","3.930000","2019-02-15 17:00:00","2018-08-10 19:21:59"
"633","Ibadan North-West","30","7.390000","3.880000","2019-02-15 17:00:00","2018-08-10 19:22:00"
"634","Ibadan South-East","30","7.330000","3.910000","2019-02-15 17:00:00","2018-08-10 19:22:01"
"635","Ibadan South-West","30","7.350000","3.880000","2019-02-15 17:00:00","2018-08-10 19:22:02"
"636","Ibarapa Central","30","7.400000","3.240000","2019-02-15 17:00:00","2018-08-10 19:22:03"
"637","Ibarapa East","30","7.640000","3.460000","2019-02-15 17:00:00","2018-08-10 19:22:04"
"638","Ibarapa North","30","7.690000","3.180000","2019-02-15 17:00:00","2018-08-10 19:22:05"
"639","Ido","30","7.510000","3.720000","2019-02-15 17:00:00","2018-08-10 19:22:06"
"640","Irepo","30","9.040000","3.870000","2019-02-15 17:00:00","2018-08-10 19:22:06"
"641","Iseyin","30","7.980000","3.590000","2019-02-15 17:00:00","2018-08-10 19:22:07"
"642","Itesiwaju","30","8.160000","3.540000","2019-02-15 17:00:00","2018-08-10 19:22:08"
"643","Iwajowa","30","8.040000","3.020000","2019-02-15 17:00:00","2018-08-10 19:22:09"
"644","Kajola","30","7.990000","3.380000","2019-02-15 17:00:00","2018-08-10 19:22:10"
"645","Lagelu","30","7.480000","4.050000","2019-02-15 17:00:00","2018-08-10 19:22:11"
"646","Ogbomosho North","30","8.130000","4.250000","2019-02-15 17:00:00","2018-08-10 19:22:12"
"647","Ogbomosho South","30","8.080000","4.220000","2019-02-15 17:00:00","2018-08-10 19:22:12"
"648","Ogo Oluwa","30","7.410000","4.000000","2019-02-15 17:00:00","2018-08-10 19:22:13"
"649","Olorunsogo","30","8.770000","4.110000","2019-02-15 17:00:00","2018-08-10 19:22:14"
"650","Oluyole","30","7.210000","3.870000","2019-02-15 17:00:00","2018-08-10 19:22:15"
"651","Ona Ara","30","7.270000","4.050000","2019-02-15 17:00:00","2018-08-10 19:22:16"
"652","Orelope","30","8.860000","3.780000","2019-02-15 17:00:00","2018-08-10 19:22:17"
"653","Ori Ire","30","8.370000","4.150000","2019-02-15 17:00:00","2018-08-10 19:22:18"
"654","Oyo West","30","7.840000","3.940000","2019-02-15 17:00:00","2018-08-10 19:22:19"
"655","Oyo East","30","7.840000","3.940000","2019-02-15 17:00:00","2018-08-10 19:22:20"
"656","Saki East","30","8.690000","3.620000","2019-02-15 17:00:00","2018-08-10 19:22:21"
"657","Saki West","30","8.600000","3.140000","2019-02-15 17:00:00","2018-08-10 19:22:22"
"658","Surulere","30","8.070000","4.440000","2019-02-15 17:00:00","2018-08-10 19:22:22"
"659","Bokkos","31","9.170000","8.920000","2019-02-15 17:00:00","2018-08-10 19:22:23"
"660","Barkin Ladi","31","9.560000","8.970000","2019-02-15 17:00:00","2018-08-10 19:22:24"
"661","Bassa","31","10.100000","8.790000","2019-02-15 17:00:00","2018-08-10 19:22:25"
"662","Jos East","31","9.870000","9.100000","2019-02-15 17:00:00","2018-08-10 19:22:26"
"663","Jos North","31","9.920000","8.880000","2019-02-15 17:00:00","2018-08-10 19:22:27"
"664","Jos South","31","9.770000","8.810000","2019-02-15 17:00:00","2018-08-10 19:22:28"
"665","Kanam","31","9.490000","9.990000","2019-02-15 17:00:00","2018-08-10 19:22:29"
"666","Kanke","31","9.370000","9.590000","2019-02-15 17:00:00","2018-08-10 19:22:30"
"667","Langtang South","31","8.620000","9.810000","2019-02-15 17:00:00","2018-08-10 19:22:31"
"668","Langtang North","31","9.100000","9.860000","2019-02-15 17:00:00","2018-08-10 19:22:32"
"669","Mangu","31","9.380000","9.150000","2019-02-15 17:00:00","2018-08-10 19:22:32"
"670","Mikang","31","9.240000","9.370000","2019-02-15 17:00:00","2018-08-10 19:22:33"
"671","Pankshin","31","9.330000","9.430000","2019-02-15 17:00:00","2018-08-10 19:22:34"
"672","Qua'an Pan","31","8.640000","9.100000","2019-02-15 17:00:00","2018-08-10 19:22:35"
"673","Riyom","31","9.570000","8.700000","2019-02-15 17:00:00","2018-08-10 19:22:36"
"674","Shendam","31","8.900000","9.450000","2019-02-15 17:00:00","2018-08-10 19:22:37"
"675","Wase","31","9.090000","9.960000","2019-02-15 17:00:00","2018-08-10 19:22:38"
"676","Abua/Odual","32","4.820000","6.540000","2019-02-15 17:00:00","2018-08-10 19:22:39"
"677","Ahoada East","32","5.050000","6.640000","2019-02-15 17:00:00","2018-08-10 19:22:40"
"678","Ahoada West","32","5.080000","6.660000","2019-02-15 17:00:00","2018-08-10 19:22:41"
"679","Akuku-Toru","32","4.610000","6.660000","2019-02-15 17:00:00","2018-08-10 19:22:42"
"680","Andoni","32","4.500000","7.370000","2019-02-15 17:00:00","2018-08-10 19:22:43"
"681","Asari-Toru","32","4.750000","6.850000","2019-02-15 17:00:00","2018-08-10 19:22:44"
"682","Bonny","32","4.410000","7.190000","2019-02-15 17:00:00","2018-08-10 19:22:44"
"683","Degema","32","4.770000","6.770000","2019-02-15 17:00:00","2018-08-10 19:22:45"
"684","Eleme","32","4.790000","7.160000","2019-02-15 17:00:00","2018-08-10 19:22:46"
"685","Emuoha","32","4.980000","6.790000","2019-02-15 17:00:00","2018-08-10 19:22:47"
"686","Etche","32","5.060000","7.050000","2019-02-15 17:00:00","2018-08-10 19:22:48"
"687","Gokana","32","4.670000","7.290000","2019-02-15 17:00:00","2018-08-10 19:22:49"
"688","Ikwerre","32","5.150000","6.880000","2019-02-15 17:00:00","2018-08-10 19:23:26"
"689","Khana","32","4.650000","7.390000","2019-02-15 17:00:00","2018-08-10 19:23:27"
"690","Obio/Akpor","32","4.880000","7.030000","2019-02-15 17:00:00","2018-08-10 19:23:28"
"691","Ogba/Egbema/Ndoni","32","5.400000","6.620000","2019-02-15 17:00:00","2018-08-10 19:23:29"
"692","Ogu/Bolo","32","4.720000","7.200000","2019-02-15 17:00:00","2018-08-10 19:23:30"
"693","Okrika","32","4.740000","7.080000","2019-02-15 17:00:00","2018-08-10 19:23:30"
"694","Omuma","32","5.120000","7.240000","2019-02-15 17:00:00","2018-08-10 19:23:31"
"695","Opobo/Nkoro","32","4.510000","7.510000","2019-02-15 17:00:00","2018-08-10 19:23:33"
"696","Oyigbo","32","4.890000","7.130000","2019-02-15 17:00:00","2018-08-10 19:23:34"
"697","Port Harcourt","32","4.820000","7.050000","2019-02-15 17:00:00","2018-08-10 19:23:35"
"698","Tai","32","4.750000","7.240000","2019-02-15 17:00:00","2018-08-10 19:23:36"
"699","Binji","33","13.220000","4.910000","2019-02-15 17:00:00","2018-08-10 19:23:37"
"700","Bodinga","33","12.820000","5.160000","2019-02-15 17:00:00","2018-08-10 19:23:37"
"701","Dange Shuni","33","12.800000","5.440000","2019-02-15 17:00:00","2018-08-10 19:23:38"
"702","Gada","33","13.750000","5.660000","2019-02-15 17:00:00","2018-08-10 19:23:39"
"703","Goronyo","33","13.440000","5.680000","2019-02-15 17:00:00","2018-08-10 19:23:40"
"704","Gudu","33","13.410000","4.480000","2019-02-15 17:00:00","2018-08-10 19:23:41"
"705","Gwadabawa","33","13.350000","5.230000","2019-02-15 17:00:00","2018-08-10 19:23:42"
"706","Illela","33","13.720000","5.350000","2019-02-15 17:00:00","2018-08-10 19:23:42"
"707","Isa","33","13.190000","6.150000","2019-02-15 17:00:00","2018-08-10 19:23:43"
"708","Kebbe","33","11.940000","4.810000","2019-02-15 17:00:00","2018-08-10 19:23:44"
"709","Kware","33","13.220000","5.260000","2019-02-15 17:00:00","2018-08-10 19:23:45"
"710","Rabah","33","13.120000","5.510000","2019-02-15 17:00:00","2018-08-10 19:23:46"
"711","Sabon Birni","33","13.510000","6.280000","2019-02-15 17:00:00","2018-08-10 19:23:47"
"712","Shagari","33","12.630000","4.990000","2019-02-15 17:00:00","2018-08-10 19:23:48"
"713","Silame","33","12.990000","4.850000","2019-02-15 17:00:00","2018-08-10 19:23:49"
"714","Sokoto North","33","13.060000","5.220000","2019-02-15 17:00:00","2018-08-10 19:23:50"
"715","Sokoto South","33","13.020000","5.240000","2019-02-15 17:00:00","2018-08-10 19:23:50"
"716","Tambuwal","33","12.350000","4.850000","2019-02-15 17:00:00","2018-08-10 19:23:51"
"717","Tangaza","33","13.400000","4.980000","2019-02-15 17:00:00","2018-08-10 19:23:52"
"718","Tureta","33","12.590000","5.550000","2019-02-15 17:00:00","2018-08-10 19:23:53"
"719","Wamako","33","13.040000","5.090000","2019-02-15 17:00:00","2018-08-10 19:23:54"
"720","Wurno","33","13.280000","5.420000","2019-02-15 17:00:00","2018-08-10 19:23:55"
"721","Yabo","33","12.720000","5.010000","2019-02-15 17:00:00","2018-08-10 19:23:56"
"722","Ardo Kola","34","8.760000","11.250000","2019-02-15 17:00:00","2018-08-10 19:23:56"
"723","Bali","34","7.850000","10.960000","2019-02-15 17:00:00","2018-08-10 19:23:57"
"724","Donga","34","7.750000","10.170000","2019-02-15 17:00:00","2018-08-10 19:23:58"
"725","Gashaka","34","7.460000","11.520000","2019-02-15 17:00:00","2018-08-10 19:23:59"
"726","Gassol","34","8.430000","10.530000","2019-02-15 17:00:00","2018-08-10 19:24:00"
"727","Ibi","34","8.320000","9.770000","2019-02-15 17:00:00","2018-08-10 19:24:01"
"728","Jalingo","34","8.890000","11.380000","2019-02-15 17:00:00","2018-08-10 19:24:02"
"729","Karim Lamido","34","9.290000","10.890000","2019-02-15 17:00:00","2018-08-10 19:24:02"
"730","Kumi","34","8.010000","10.260000","2019-02-15 17:00:00","2018-08-10 19:24:03"
"731","Lau","34","9.200000","11.290000","2019-02-15 17:00:00","2018-08-10 19:24:04"
"732","Sardauna","34","6.870000","11.250000","2019-02-15 17:00:00","2018-08-10 19:24:05"
"733","Takum","34","7.260000","9.970000","2019-02-15 17:00:00","2018-08-10 19:24:06"
"734","Ussa","34","7.110000","10.040000","2019-02-15 17:00:00","2018-08-10 19:24:06"
"735","Wukari","34","7.930000","9.810000","2019-02-15 17:00:00","2018-08-10 19:24:07"
"736","Yorro","34","8.880000","11.480000","2019-02-15 17:00:00","2018-08-10 19:24:08"
"737","Zing","34","9.000000","11.750000","2019-02-15 17:00:00","2018-08-10 19:24:09"
"738","Bade","35","12.840000","10.780000","2019-02-15 17:00:00","2018-08-10 19:24:10"
"739","Bursari","35","12.190000","11.710000","2019-02-15 17:00:00","2018-08-10 19:24:11"
"740","Damaturu","35","11.750000","11.970000","2019-02-15 17:00:00","2018-08-10 19:24:12"
"741","Fika","35","11.290000","11.310000","2019-02-15 17:00:00","2018-08-10 19:24:13"
"742","Fune","35","11.660000","11.520000","2019-02-15 17:00:00","2018-08-10 19:24:14"
"743","Geidam","35","12.630000","11.980000","2019-02-15 17:00:00","2018-08-10 19:24:15"
"744","Gujba","35","11.500000","11.930000","2019-02-15 17:00:00","2018-08-10 19:24:16"
"745","Gulani","35","10.980000","11.660000","2019-02-15 17:00:00","2018-08-10 19:24:16"
"746","Jakusko","35","12.490000","10.890000","2019-02-15 17:00:00","2018-08-10 19:24:17"
"747","Karasuwa","35","12.910000","10.660000","2019-02-15 17:00:00","2018-08-10 19:24:18"
"748","Machina","35","13.110000","10.130000","2019-02-15 17:00:00","2018-08-10 19:24:19"
"749","Nangere","35","11.810000","10.940000","2019-02-15 17:00:00","2018-08-10 19:24:20"
"750","Nguru","35","12.880000","10.460000","2019-02-15 17:00:00","2018-08-10 19:24:21"
"751","Potiskum","35","11.710000","11.080000","2019-02-15 17:00:00","2018-08-10 19:24:21"
"752","Tarmuwa","35","12.090000","11.800000","2019-02-15 17:00:00","2018-08-10 19:24:22"
"753","Yunusari","35","13.190000","11.620000","2019-02-15 17:00:00","2018-08-10 19:24:23"
"754","Yusufari","35","13.220000","10.890000","2019-02-15 17:00:00","2018-08-10 19:24:24"
"755","Anka","36","11.920000","5.980000","2019-02-15 17:00:00","2018-08-10 19:24:25"
"756","Bakura","36","12.600000","5.880000","2019-02-15 17:00:00","2018-08-10 19:24:26"
"757","Birnin Magaji/Kiyaw","36","12.400000","6.880000","2019-02-15 17:00:00","2018-08-10 19:24:27"
"758","Bukkuyum","36","11.920000","5.650000","2019-02-15 17:00:00","2018-08-10 19:24:27"
"759","Bungudu","36","12.130000","6.450000","2019-02-15 17:00:00","2018-08-10 19:24:28"
"760","Gummi","36","11.930000","5.140000","2019-02-15 17:00:00","2018-08-10 19:24:29"
"761","Gusau","36","12.160000","6.670000","2019-02-15 17:00:00","2018-08-10 19:24:30"
"762","Kaura Namoda","36","12.600000","6.590000","2019-02-15 17:00:00","2018-08-10 19:24:31"
"763","Maradun","36","12.830000","6.150000","2019-02-15 17:00:00","2018-08-10 19:24:32"
"764","Maru","36","11.370000","6.320000","2019-02-15 17:00:00","2018-08-10 19:24:33"
"765","Shinkafi","36","13.070000","6.510000","2019-02-15 17:00:00","2018-08-10 19:24:33"
"766","Talata Mafara","36","12.330000","6.030000","2019-02-15 17:00:00","2018-08-10 19:24:34"
"767","Chafe","36","11.960000","6.920000","2019-02-15 17:00:00","2018-08-10 19:24:35"
"768","Zurmi","36","12.810000","6.840000","2019-02-15 17:00:00","2018-08-10 19:24:36"
"769","Abaji","37","8.470000","6.950000","2019-02-15 17:00:00","2018-08-10 19:24:37"
"770","Bwari","37","9.290000","7.380000","2019-02-15 17:00:00","2018-08-10 19:24:38"
"771","Gwagwalada","37","8.950000","7.080000","2019-02-15 17:00:00","2018-08-10 19:24:39"
"772","Kuje","37","8.880000","7.240000","2019-02-15 17:00:00","2018-08-10 19:24:40"
"773","Kwali","37","8.850000","7.060000","2019-02-15 17:00:00","2018-08-10 19:24:40"
"774","Municipal Area Council","37","9.060000","7.420000","2019-02-15 17:00:00","2018-08-10 19:24:41"
